{"resourceType":"Location","id":"0b9875ba-9310-313d-93d4-bf552585d527","meta":{"profile":["http://hl7.org/fhir/us/core/StructureDefinition/us-core-location"]},"identifier":[{"system":"https://github.com/synthetichealth/synthea","value":"0b9875ba-9310-313d-93d4-bf552585d527"}],"status":"active","name":"LIFE CARE CENTER OF BURLINGTON","telecom":[{"system":"phone","value":"6203642117"}],"address":{"line":["601 CROSS STREET"],"city":"BURLINGTON","state":"KS","postalCode":"668391105","country":"US"},"position":{"longitude":-95.742114,"latitude":38.206373},"managingOrganization":{"identifier":{"system":"https://github.com/synthetichealth/synthea","value":"658bfe6a-1b87-3ca3-9923-959fd4e14477"},"display":"LIFE CARE CENTER OF BURLINGTON"}}
{"resourceType":"Location","id":"14832308-0e8e-336d-89bd-b6426a2ad97e","meta":{"profile":["http://hl7.org/fhir/us/core/StructureDefinition/us-core-location"]},"identifier":[{"system":"https://github.com/synthetichealth/synthea","value":"14832308-0e8e-336d-89bd-b6426a2ad97e"}],"status":"active","name":"UK ST FRANCIS URGENT CARE","telecom":[{"system":"phone","value":"7855966088"}],"address":{"line":["1101 SW 29TH ST"],"city":"TOPEKA","state":"KS","postalCode":"666142218","country":"US"},"position":{"longitude":-95.691072,"latitude":39.015056},"managingOrganization":{"identifier":{"system":"https://github.com/synthetichealth/synthea","value":"4de05f8e-95ca-3a2f-818a-39a974dcf8bf"},"display":"UK ST FRANCIS URGENT CARE"}}
{"resourceType":"Location","id":"16a26e7c-d6a6-3e2f-8af9-2b57503ad048","meta":{"profile":["http://hl7.org/fhir/us/core/StructureDefinition/us-core-location"]},"identifier":[{"system":"https://github.com/synthetichealth/synthea","value":"16a26e7c-d6a6-3e2f-8af9-2b57503ad048"}],"status":"active","name":"NORTON MEDICAL CLINIC","telecom":[{"system":"phone","value":"7858773305"}],"address":{"line":["807 N STATE STREET"],"city":"NORTON","state":"KS","postalCode":"676541403","country":"US"},"position":{"longitude":-99.88865479605424,"latitude":39.83710138310785},"managingOrganization":{"identifier":{"system":"https://github.com/synthetichealth/synthea","value":"e4793154-8425-33df-a455-d3269cef861a"},"display":"NORTON MEDICAL CLINIC"}}
{"resourceType":"Location","id":"17fdeded-8390-3518-a2ca-02ae0bdfce5b","meta":{"profile":["http://hl7.org/fhir/us/core/StructureDefinition/us-core-location"]},"identifier":[{"system":"https://github.com/synthetichealth/synthea","value":"17fdeded-8390-3518-a2ca-02ae0bdfce5b"}],"status":"active","name":"ANDBE HOME, INC","telecom":[{"system":"phone","value":"7858772601"}],"address":{"line":["201 W CRANE STREET"],"city":"NORTON","state":"KS","postalCode":"676541117","country":"US"},"position":{"longitude":-99.89053622600223,"latitude":39.840390445227904},"managingOrganization":{"identifier":{"system":"https://github.com/synthetichealth/synthea","value":"dce5df56-31c3-3dba-84b7-6e9638e51f61"},"display":"ANDBE HOME, INC"}}
{"resourceType":"Location","id":"181ad8e2-5cb8-343c-b80b-4a439077017c","meta":{"profile":["http://hl7.org/fhir/us/core/StructureDefinition/us-core-location"]},"identifier":[{"system":"https://github.com/synthetichealth/synthea","value":"181ad8e2-5cb8-343c-b80b-4a439077017c"}],"status":"active","name":"HEALTH AND WELLNESS CLINIC, LLC","telecom":[{"system":"phone","value":"9135791154"}],"address":{"line":["7423 METCALF AVE"],"city":"OVERLAND PARK","state":"KS","postalCode":"662041975","country":"US"},"position":{"longitude":-94.66758659407807,"latitude":38.99458306176166},"managingOrganization":{"identifier":{"system":"https://github.com/synthetichealth/synthea","value":"6d897d1c-a732-346f-991e-6e1a5b3d5af1"},"display":"HEALTH AND WELLNESS CLINIC, LLC"}}
{"resourceType":"Location","id":"185312a0-05aa-3dae-9a19-9ebf1fb3a524","meta":{"profile":["http://hl7.org/fhir/us/core/StructureDefinition/us-core-location"]},"identifier":[{"system":"https://github.com/synthetichealth/synthea","value":"185312a0-05aa-3dae-9a19-9ebf1fb3a524"}],"status":"active","name":"WILLIAMS MEDICAL GROUP PRACTICE LLC","telecom":[{"system":"phone","value":"6206157197"}],"address":{"line":["1805 1/2 E 17TH AVE"],"city":"HUTCHINSON","state":"KS","postalCode":"675011102","country":"US"},"position":{"longitude":-97.9131259,"latitude":38.0720774},"managingOrganization":{"identifier":{"system":"https://github.com/synthetichealth/synthea","value":"e33eb719-da96-36bb-9a7a-3204a7a7e59b"},"display":"WILLIAMS MEDICAL GROUP PRACTICE LLC"}}
{"resourceType":"Location","id":"25540c34-e643-3a84-8a83-1229472c76bb","meta":{"profile":["http://hl7.org/fhir/us/core/StructureDefinition/us-core-location"]},"identifier":[{"system":"https://github.com/synthetichealth/synthea","value":"25540c34-e643-3a84-8a83-1229472c76bb"}],"status":"active","name":"NINNESCAH VALLEY HEALTH SYSTEMS INC","telecom":[{"system":"phone","value":"6205320295"}],"address":{"line":["112 N MAIN ST"],"city":"CUNNINGHAM","state":"KS","postalCode":"670358802","country":"US"},"position":{"longitude":-98.43275177551021,"latitude":37.64547912244898},"managingOrganization":{"identifier":{"system":"https://github.com/synthetichealth/synthea","value":"e2fb8961-be35-3526-a2da-6a639f69579b"},"display":"NINNESCAH VALLEY HEALTH SYSTEMS INC"}}
{"resourceType":"Location","id":"2f2718b2-8741-3ad6-bb1c-9b7bc0f34bf4","meta":{"profile":["http://hl7.org/fhir/us/core/StructureDefinition/us-core-location"]},"identifier":[{"system":"https://github.com/synthetichealth/synthea","value":"2f2718b2-8741-3ad6-bb1c-9b7bc0f34bf4"}],"status":"active","name":"PHILLIPS COUNTY HOSPITAL","telecom":[{"system":"phone","value":"7855435226"}],"address":{"line":["1150 STATE ST"],"city":"PHILLIPSBURG","state":"KS","postalCode":"676611743","country":"US"},"position":{"longitude":-99.31329195009515,"latitude":39.7552375},"managingOrganization":{"identifier":{"system":"https://github.com/synthetichealth/synthea","value":"819b3bd8-e1b3-3445-bc4b-523c291a3641"},"display":"PHILLIPS COUNTY HOSPITAL"}}
{"resourceType":"Location","id":"3003bee6-9fb2-3eae-a6cf-0d32d09e28c9","meta":{"profile":["http://hl7.org/fhir/us/core/StructureDefinition/us-core-location"]},"identifier":[{"system":"https://github.com/synthetichealth/synthea","value":"3003bee6-9fb2-3eae-a6cf-0d32d09e28c9"}],"status":"active","name":"NEWMAN MEMORIAL COUNTY HOSPITAL","telecom":[{"system":"phone","value":"6203436800"}],"address":{"line":["1201 W 12TH AVE"],"city":"EMPORIA","state":"KS","postalCode":"668012504","country":"US"},"position":{"longitude":-96.19574205651222,"latitude":38.4112851},"managingOrganization":{"identifier":{"system":"https://github.com/synthetichealth/synthea","value":"61e67719-63e4-318e-91ab-c834166b4680"},"display":"NEWMAN MEMORIAL COUNTY HOSPITAL"}}
{"resourceType":"Location","id":"32e7c7dd-9f9d-3ab0-a53b-d6f8cd0473bf","meta":{"profile":["http://hl7.org/fhir/us/core/StructureDefinition/us-core-location"]},"identifier":[{"system":"https://github.com/synthetichealth/synthea","value":"32e7c7dd-9f9d-3ab0-a53b-d6f8cd0473bf"}],"status":"active","name":"URGENT CARE CHIROPRACTIC PA","telecom":[{"system":"phone","value":"4803349812"}],"address":{"line":["13469 SWITZER RD"],"city":"OVERLAND PARK","state":"KS","postalCode":"662133301","country":"US"},"position":{"longitude":-94.70035613953269,"latitude":38.88459872206957},"managingOrganization":{"identifier":{"system":"https://github.com/synthetichealth/synthea","value":"5a843c7a-a56d-34b0-ad17-bd3a09b8b22b"},"display":"URGENT CARE CHIROPRACTIC PA"}}
{"resourceType":"Location","id":"39d1bfd1-0503-3d59-b24a-b7f26a58004f","meta":{"profile":["http://hl7.org/fhir/us/core/StructureDefinition/us-core-location"]},"identifier":[{"system":"https://github.com/synthetichealth/synthea","value":"39d1bfd1-0503-3d59-b24a-b7f26a58004f"}],"status":"active","name":"RECOVER-CARE EMPORIA LLC","telecom":[{"system":"phone","value":"6203423280"}],"address":{"line":["1620 WHEELER ST"],"city":"EMPORIA","state":"KS","postalCode":"668016146","country":"US"},"position":{"longitude":-96.21223614285714,"latitude":38.41808622222222},"managingOrganization":{"identifier":{"system":"https://github.com/synthetichealth/synthea","value":"7a07c9b5-8bd4-3dda-983e-45d4bb580008"},"display":"RECOVER-CARE EMPORIA LLC"}}
{"resourceType":"Location","id":"3b23bdf7-5bd6-30bf-85a9-a37d7d74938a","meta":{"profile":["http://hl7.org/fhir/us/core/StructureDefinition/us-core-location"]},"identifier":[{"system":"https://github.com/synthetichealth/synthea","value":"3b23bdf7-5bd6-30bf-85a9-a37d7d74938a"}],"status":"active","name":"NEWMAN MEMORIAL COUNTY HOSPITAL","telecom":[{"system":"phone","value":"6203436800"}],"address":{"line":["1201 W 12TH AVE"],"city":"EMPORIA","state":"KS","postalCode":"668012504","country":"US"},"position":{"longitude":-96.19574205651222,"latitude":38.4112851},"managingOrganization":{"identifier":{"system":"https://github.com/synthetichealth/synthea","value":"a261e1fc-9361-3633-a2c4-8569a04b818d"},"display":"NEWMAN MEMORIAL COUNTY HOSPITAL"}}
{"resourceType":"Location","id":"3b551517-4d1a-34c5-b21f-21d3a6707c36","meta":{"profile":["http://hl7.org/fhir/us/core/StructureDefinition/us-core-location"]},"identifier":[{"system":"https://github.com/synthetichealth/synthea","value":"3b551517-4d1a-34c5-b21f-21d3a6707c36"}],"status":"active","name":"AT-HOME HEALTH CARE INC","telecom":[{"system":"phone","value":"6203419350"}],"address":{"line":["2708 W 12TH AVE"],"city":"EMPORIA","state":"KS","postalCode":"668016341","country":"US"},"position":{"longitude":-96.2144929387755,"latitude":38.412397081632655},"managingOrganization":{"identifier":{"system":"https://github.com/synthetichealth/synthea","value":"d0d7bbbc-9a6a-3b07-80c1-8ee50420d8e6"},"display":"AT-HOME HEALTH CARE INC"}}
{"resourceType":"Location","id":"49167f95-19f3-3e6e-be51-9a6950138ff4","meta":{"profile":["http://hl7.org/fhir/us/core/StructureDefinition/us-core-location"]},"identifier":[{"system":"https://github.com/synthetichealth/synthea","value":"49167f95-19f3-3e6e-be51-9a6950138ff4"}],"status":"active","name":"PHILLIPS COUNTY HOSPITAL","telecom":[{"system":"phone","value":"7855435211"}],"address":{"line":["1719 HIGHWAY 183"],"city":"PHILLIPSBURG","state":"KS","postalCode":"676612549","country":"US"},"position":{"longitude":-99.323985,"latitude":39.756121},"managingOrganization":{"identifier":{"system":"https://github.com/synthetichealth/synthea","value":"6a0cfb72-aacb-3836-a49b-5f41fd09dc38"},"display":"PHILLIPS COUNTY HOSPITAL"}}
{"resourceType":"Location","id":"4d308916-6e65-3209-ab0c-4aa34d26d01b","meta":{"profile":["http://hl7.org/fhir/us/core/StructureDefinition/us-core-location"]},"identifier":[{"system":"https://github.com/synthetichealth/synthea","value":"4d308916-6e65-3209-ab0c-4aa34d26d01b"}],"status":"active","name":"SELECT SPECIALTY HOSPITAL WICHITA","telecom":[{"system":"phone","value":"3169623930"}],"address":{"line":["929 NORTH ST FRANCIS, 6TH FLOOR, NORTH TOWER"],"city":"WICHITA","state":"KS","postalCode":"672143821","country":"US"},"position":{"longitude":-97.33271175285373,"latitude":37.6981691},"managingOrganization":{"identifier":{"system":"https://github.com/synthetichealth/synthea","value":"669511b1-75c5-3029-9f90-81335c0e6f08"},"display":"SELECT SPECIALTY HOSPITAL WICHITA"}}
{"resourceType":"Location","id":"4ed9c76a-08e4-3592-a31e-a9b29a74f6b6","meta":{"profile":["http://hl7.org/fhir/us/core/StructureDefinition/us-core-location"]},"identifier":[{"system":"https://github.com/synthetichealth/synthea","value":"4ed9c76a-08e4-3592-a31e-a9b29a74f6b6"}],"status":"active","name":"SAINT LUKE'S SOUTH HOSPITAL INC","telecom":[{"system":"phone","value":"9133177000"}],"address":{"line":["12300 METCALF AVE"],"city":"OVERLAND PARK","state":"KS","postalCode":"662131324","country":"US"},"position":{"longitude":-94.66968090917021,"latitude":38.90339525},"managingOrganization":{"identifier":{"system":"https://github.com/synthetichealth/synthea","value":"5b1ee7ed-c5ed-3d63-a54c-bd0d1f2f301b"},"display":"SAINT LUKE'S SOUTH HOSPITAL INC"}}
{"resourceType":"Location","id":"5490574a-979d-31ab-a538-782f9e2ee183","meta":{"profile":["http://hl7.org/fhir/us/core/StructureDefinition/us-core-location"]},"identifier":[{"system":"https://github.com/synthetichealth/synthea","value":"5490574a-979d-31ab-a538-782f9e2ee183"}],"status":"active","name":"PHILLIPS COUNTY HOSPITAL","telecom":[{"system":"phone","value":"7855435226"}],"address":{"line":["1150 STATE ST"],"city":"PHILLIPSBURG","state":"KS","postalCode":"676611743","country":"US"},"position":{"longitude":-99.31329195009515,"latitude":39.7552375},"managingOrganization":{"identifier":{"system":"https://github.com/synthetichealth/synthea","value":"4121db5e-9ede-3e15-9ca2-310895a47b0b"},"display":"PHILLIPS COUNTY HOSPITAL"}}
{"resourceType":"Location","id":"578a239f-0243-3287-87c3-04fdaa6e639c","meta":{"profile":["http://hl7.org/fhir/us/core/StructureDefinition/us-core-location"]},"identifier":[{"system":"https://github.com/synthetichealth/synthea","value":"578a239f-0243-3287-87c3-04fdaa6e639c"}],"status":"active","name":"HUTCHINSON REGIONAL MEDICAL CENTER INC","telecom":[{"system":"phone","value":"6206652000"}],"address":{"line":["1701 E 23RD AVE"],"city":"HUTCHINSON","state":"KS","postalCode":"675021105","country":"US"},"position":{"longitude":-97.89192244539859,"latitude":38.077257200000005},"managingOrganization":{"identifier":{"system":"https://github.com/synthetichealth/synthea","value":"a064574b-0685-32f5-a693-2b86d19c35bd"},"display":"HUTCHINSON REGIONAL MEDICAL CENTER INC"}}
{"resourceType":"Location","id":"64349ed7-e6aa-3bf1-962a-8800098b9346","meta":{"profile":["http://hl7.org/fhir/us/core/StructureDefinition/us-core-location"]},"identifier":[{"system":"https://github.com/synthetichealth/synthea","value":"64349ed7-e6aa-3bf1-962a-8800098b9346"}],"status":"active","name":"VITAS INNOVATIVE HOSPICE CARE","telecom":[{"system":"phone","value":"9137221631"}],"address":{"line":["8527 BLUEJACKET DRIVE"],"city":"LENEXA","state":"KS","postalCode":"66214","country":"US"},"position":{"longitude":-94.7845837,"latitude":38.9697458},"managingOrganization":{"identifier":{"system":"https://github.com/synthetichealth/synthea","value":"2eff3da7-ab13-347f-94d4-3fa5c0dbc75d"},"display":"VITAS INNOVATIVE HOSPICE CARE"}}
{"resourceType":"Location","id":"74d720f7-ecb0-377d-b710-2909a98bad35","meta":{"profile":["http://hl7.org/fhir/us/core/StructureDefinition/us-core-location"]},"identifier":[{"system":"https://github.com/synthetichealth/synthea","value":"74d720f7-ecb0-377d-b710-2909a98bad35"}],"status":"active","name":"MOUNT ST MARY INC","telecom":[{"system":"phone","value":"3166867171"}],"address":{"line":["3700 E LINCOLN ST"],"city":"WICHITA","state":"KS","postalCode":"672182008","country":"US"},"position":{"longitude":-97.29313439252337,"latitude":37.67207591588785},"managingOrganization":{"identifier":{"system":"https://github.com/synthetichealth/synthea","value":"eacf96c9-3091-3d2d-aa23-10e3e14b3cd0"},"display":"MOUNT ST MARY INC"}}
